[
	{"lat":35.702746,	"lng":139.752009,	"name":"E1-01.後楽橋横","addr1":"",	"addr2":"",				"img":"system/data/port/E1-01.jpg",	"icon":"system/data/images/port.png"},
	{"lat":35.703110,	"lng":139.754951,	"name":"E1-02.東京ドーム(ミーツポート)","addr1":"",	"addr2":"",				"img":"system/data/port/E1-02.jpg",	"icon":"system/data/images/port.png"},
	{"lat":35.703190,	"lng":139.751888,	"name":"E1-03.東京ドーム（黄色いビル横）","addr1":"","addr2":"",				"img":"system/data/port/E1-03.jpg",	"icon":"system/data/images/port.png"},
	{"lat":35.707940,	"lng":139.751609,	"name":"E1-04.礫川公園","addr1":"","addr2":""	,				"img":"system/data/port/E1-04.jpg",	"icon":"system/data/images/port.png"},
	{"lat":35.7082479,	"lng":139.7534051,	"name":"E1-05.春日自転車駐車場","addr1":"営業時間：5:00-23:59","addr2":""	,				"img":"system/data/port/E1-05.jpg",	"icon":"system/data/images/port.png"},
	{"lat":35.708268,	"lng":139.752009,	"name":"E1-06.文京シビックセンター","addr1":"",	"addr2":"",			"img":"system/data/port/E1-06.jpg",	"icon":"system/data/images/port.png"},
	{"lat":35.712015,	"lng":139.750284,	"name":"E1-07.礫川地域活動センター","addr1":"","addr2":"",		"img":"system/data/port/E1-07.jpg",	"icon":"system/data/images/port.png"},
	{"lat":35.7076097,	"lng":139.7516751,	"name":"【無人販売機】E1-08.後楽園自転車駐車場","addr1":"営業時間：5:00-25:00","addr2":"",		"img":"system/data/port/E1-08.jpg",	"icon":"system/data/images/kiosk.png"},
	{"lat":35.70156, 	"lng":139.76636,	"name":"【1日パス販売窓口】E1-09.お茶の水イン","addr1":"","addr2":"",		"img":"system/data/port/E1-09.jpg",	"icon":"system/data/images/yujin.png"},
	{"lat":35.7036470,	"lng":139.7537955,	"name":"【無人販売機】E1-10.東京ドームホテル","addr1":"","addr2":"",		"img":"system/data/port/E1-10.jpg",	"icon":"system/data/images/kiosk.png"},
	{"lat":35.703914,	"lng":139.747061,	"name":"E1-11.小石川運動場前","addr1":"","addr2":"",	"img":"system/data/port/E1-11.jpg",	"icon":"system/data/images/port.png"},
	{"lat":35.70806,  	"lng":139.74942,	"name":"E1-12.中央大学 後楽園キャンパス","addr1":"","addr2":"",	"img":"system/data/port/E1-12.jpg",	"icon":"system/data/images/port.png"},
	{"lat":35.714313,    "lng":139.751374,	"name":"E1-13.エルアージュ小石川","addr1":"","addr2":"",	"img":"system/data/port/E1-13.jpg",	"icon":"system/data/images/port.png"},
	{"lat":35.711134,   "lng":139.747391,	"name":"E1-14.いきいき礫川","addr1":"","addr2":"",	"img":"system/data/port/E1-14.jpg",	"icon":"system/data/images/port.png"},
	{"lat":35.717240 ,     "lng":139.742890,	"name":"E1-15.播磨坂事業所","addr1":"","addr2":"",	"img":"system/data/port/E1-15.jpg",	"icon":"system/data/images/port.png"},
	{"lat":35.710381,	"lng":139.732137,	"name":"E2-01.江戸川橋B自転車駐車場","addr1":"","addr2":"",	"img":"system/data/port/E2-01.jpg",	"icon":"system/data/images/port.png"},
	{"lat":35.710958,	"lng":139.731165,	"name":"E2-02.江戸川公園","addr1":"","addr2":"",	"img":"system/data/port/E2-02.jpg",	"icon":"system/data/images/port.png"},
	{"lat":35.715556,	"lng":139.721988,	"name":"E2-03.目白台運動公園","addr1":"","addr2":"",			"img":"system/data/port/E2-03.jpg",	"icon":"system/data/images/port.png"},
	{"lat":35.719421,	"lng":139.725584,	"name":"E2-05.護国寺駅西自転車駐車場","addr1":"","addr2":"",		"img":"system/data/port/E2-05.jpg",	"icon":"system/data/images/port.png"},
	{"lat":35.713979,	"lng":139.725715,	"name":"E2-06.oto no ha Café","addr1":"","addr2":"",		"img":"system/data/port/E2-06.jpg",	"icon":"system/data/images/port.png"},
	{"lat":35.713979,	"lng":139.725715,	"name":"E2-07.肥後細川庭園","addr1":"","addr2":"",		"img":"system/data/port/E2-07.jpg",	"icon":"system/data/images/port.png"},
	{"lat":35.713223,	"lng":139.7216399,	"name":"E2-08.サクラドミトリー文京","addr1":"","addr2":"",		"img":"system/data/port/E2-08.jpg",	"icon":"system/data/images/port.png"},
	{"lat":35.710098,	"lng":139.728136,	"name":"E2-09.一休橋","addr1":"","addr2":"",		"img":"system/data/port/E2-09.jpg",	"icon":"system/data/images/port.png"},
	{"lat":35.716672,	"lng":139.727666,	"name":"E2-10.音羽パークロード（北入口）","addr1":"","addr2":"",		"img":"system/data/port/E2-10.jpg",	"icon":"system/data/images/port.png"},
	{"lat":35.715361,	"lng":139.728558,	"name":"E2-11.音羽パークロード（キャッチボール場横）","addr1":"","addr2":"",		"img":"system/data/port/E2-11.jpg",	"icon":"system/data/images/port.png"},
	{"lat":35.709146,	"lng":139.739182,	"name":"E2-12.水道2丁目","addr1":"","addr2":"",		"img":"system/data/port/E2-12.jpg",	"icon":"system/data/images/port.png"},
	{"lat":35.718656,	"lng":139.734556,	"name":"E3-01.大塚地域活動センター","addr1":"","addr2":""	,		"img":"system/data/port/E3-01.jpg",	"icon":"system/data/images/port.png"},
	{"lat":35.719345,	"lng":139.7361980,	"name":"E3-02.教育の森公園","addr1":"",	"addr2":""		,	"img":"system/data/port/E3-02.jpg",	"icon":"system/data/images/port.png"},
	{"lat":35.7243511,	"lng":139.7308008,	"name":"E3-03.大塚公園","addr1":"","addr2":"",				"img":"system/data/port/E3-03.jpg",	"icon":"system/data/images/port.png"},
	{"lat":35.713681, 	"lng":139.741252,	"name":"E3-04.茗台中学校","addr1":"","addr2":"",				"img":"system/data/port/E3-04.jpg",	"icon":"system/data/images/port.png"},
	{"lat":35.721045, 	"lng":139.735687,	"name":"E3-05.文京スポーツセンター","addr1":"","addr2":"",				"img":"system/data/port/E3-05.jpg",	"icon":"system/data/images/port.png"},
	{"lat":35.727070,	"lng":139.746112,	"name":"E4-01.千石南自転車駐車場","addr1":"",	"addr2":"",		"img":"system/data/port/E4-01.jpg",	"icon":"system/data/images/port.png"},
	{"lat":35.717357,	"lng":139.757817,	"name":"E4-02.向丘地域活動センター","addr1":"営業時間：9:00-21:30",	"addr2":"",		"img":"system/data/port/E4-02.jpg",	"icon":"system/data/images/port.png"},
	{"lat":35.73166,	"lng":139.748625,	"name":"E4-03.昭和小学校北側（不忍通り）","addr1":"",	"addr2":"",		"img":"system/data/port/E4-03.jpg",	"icon":"system/data/images/port.png"},
	{"lat":35.724707,	"lng":139.750469,	"name":"E4-04.セブン-イレブン 文京本駒込1丁目店","addr1":"",	"addr2":"",		"img":"system/data/port/E4-04.jpg",	"icon":"system/data/images/port.png"},
	{"lat":35.7315627, 	"lng":139.7391411,	"name":"E4-06.阿部電業社","addr1":"",	"addr2":"",		"img":"system/data/port/E4-06.jpg",	"icon":"system/data/images/port.png"},
	{"lat":35.727321,	"lng":139.746158,	"name":"E4-07.ファミリーマート 本駒込二丁目店","addr1":"",	"addr2":"",		"img":"system/data/port/E4-07.jpg",	"icon":"system/data/images/port.png"},
	{"lat":35.720546,   "lng":139.756685,	"name":"E4-08.ドコモ・バイクシェア向丘ポート","addr1":"",	"addr2":"",		"img":"system/data/port/E4-08.jpg",	"icon":"system/data/images/port.png"},
	{"lat":35.718385,   "lng":139.743424,	"name":"E4-09.レジャンシック小石川","addr1":"",	"addr2":"",		"img":"system/data/port/E4-09.jpg",	"icon":"system/data/images/port.png"},
	{"lat":35.720349,   "lng":139.746924,	"name":"E4-10.白山四丁目第二児童遊園横","addr1":"",	"addr2":"",		"img":"system/data/port/E4-10.jpg",	"icon":"system/data/images/port.png"},
	{"lat":35.729728,   "lng":139.742815,	"name":"E4-11.プライマル千石","addr1":"",	"addr2":"",		"img":"system/data/port/E4-11.jpg",	"icon":"system/data/images/port.png"},
	{"lat":35.727519,   "lng":139.739306,	"name":"E4-12.文京宮下公園","addr1":"",	"addr2":"",		"img":"system/data/port/E4-12.jpg",	"icon":"system/data/images/port.png"},
	{"lat":35.725385,   "lng":139.754568,	"name":"E4-13.本駒込3丁目バス停前","addr1":"",	"addr2":"",		"img":"system/data/port/E4-13.jpg",	"icon":"system/data/images/port.png"},
	{"lat":35.708121,	"lng":139.763583,	"name":"E5-01.文京総合体育館","addr1":"","addr2":"",				"img":"system/data/port/E5-01.jpg",	"icon":"system/data/images/port.png"},
	{"lat":35.719356,	"lng":139.764308,	"name":"E5-02.不忍通りふれあい館","addr1":"",	"addr2":"",			"img":"system/data/port/E5-02.jpg",	"icon":"system/data/images/port.png"},
	{"lat":35.725538,	"lng":139.761160,	"name":"E5-03.汐見地域活動センター（本郷図書館）","addr1":""	,"addr2":"","img":"system/data/port/E5-03.jpg",	"icon":"system/data/images/port.png"},
	{"lat":35.727046,	"lng":139.760439,	"name":"E5-04.保健サービスセンター本郷支所","addr1":"","addr2":"",	"img":"system/data/port/E5-04.jpg",	"icon":"system/data/images/port.png"},
	{"lat":35.728644,	"lng":139.752183,	"name":"E5-05.駒込地域活動センター","addr1":"","addr2":"",		"img":"system/data/port/E5-05.jpg",	"icon":"system/data/images/port.png"},
	{"lat":35.70804, 	"lng":139.75973,	"name":"【1日パス販売窓口】E5-06.機山館","addr1":"","addr2":"",		"img":"system/data/port/E5-06.jpg",	"icon":"system/data/images/yujin.png"},
	{"lat":35.707296,  	"lng":139.769393,	"name":"E5-07.湯島三丁目児童遊園","addr1":"","addr2":"",		"img":"system/data/port/E5-07.jpg",	"icon":"system/data/images/port.png"},
	{"lat":35.727778,  	"lng":139.756296,	"name":"E5-08.セブン-イレブン 文京動坂上店","addr1":"","addr2":"",		"img":"system/data/port/E5-08.jpg",	"icon":"system/data/images/port.png"},
	{"lat":35.70861,  	"lng":139.75768,	"name":"E5-09.文京区 男女平等センター","addr1":"","addr2":"",		"img":"system/data/port/E5-09.jpg",	"icon":"system/data/images/port.png"},
	{"lat":35.702621,  	"lng":139.764654,	"name":"E5-10.ホテル東京ガーデンパレス","addr1":"","addr2":"",		"img":"system/data/port/E5-10.jpg",	"icon":"system/data/images/port1.png"},
	{"lat":35.702769,  	"lng":139.765144,	"name":"E5-11.ホテル東京ガーデンパレス 地下駐車場","addr1":"","addr2":"",		"img":"system/data/port/E5-11.jpg",	"icon":"system/data/images/port.png"}
	]