[
	{"lat":35.669596	,	"lng":139.751179	,	"name":"C1-01.虎ノ門1丁目暫定自転車置場（外堀通り）",	"addr1":""		,	"addr2":""		,	"img":"system/data/port/C1-01.jpg"	,	"icon":"system/data/images/port.png"	},
	{"lat":35.668791	,	"lng":139.753582	,	"name":"C1-02.西新橋1丁目（外堀通り）"		,	"addr1":""		,	"addr2":""		,	"img":"system/data/port/C1-02.jpg"	,	"icon":"system/data/images/port.png"	},
	{"lat":35.666525	,	"lng":139.748776	,	"name":"C1-04.虎ノ門ヒルズ"			,	"addr1":""		,	"addr2":""		,	"img":"system/data/port/C1-04.jpg"	,	"icon":"system/data/images/port.png"	},
	{"lat":35.665593	,	"lng":139.752617	,	"name":"C1-05.西新橋2丁目(新虎通り)"		,	"addr1":""		,	"addr2":""		,	"img":"system/data/port/C1-05.jpg"	,	"icon":"system/data/images/port.png"	},
	{"lat":35.661995	,	"lng":139.748164	,	"name":"C1-09.愛宕グリーンヒルズ"		,	"addr1":""		,	"addr2":""		,	"img":"system/data/port/C1-09.jpg"	,	"icon":"system/data/images/port.png"	},
	{"lat":35.662208	,	"lng":139.753953	,	"name":"C1-10.きらきらプラザ新橋"		,	"addr1":""		,	"addr2":""		,	"img":"system/data/port/C1-10.jpg"	,	"icon":"system/data/images/port.png"	},
	{"lat":35.665757	,	"lng":139.752278	,	"name":"C1-11.西新橋バイク駐車場"		,	"addr1":""		,	"addr2":""		,	"img":"system/data/port/C1-11.jpg"	,	"icon":"system/data/images/port.png"	},
	{"lat":35.664461	,	"lng":139.756082	,	"name":"C1-14.新橋プラザビル"			,	"addr1":""		,	"addr2":""		,	"img":"system/data/port/C1-14.jpg"	,	"icon":"system/data/images/port.png"	},
	{"lat":35.65932		,	"lng":139.74487		,	"name":"【無人販売機併設】C1-15.東京タワー"			,	"addr1":""		,	"addr2":""		,	"img":"system/data/port/C1-15.jpg"	,	"icon":"system/data/images/port1.png"	},
	{"lat":35.659442	,	"lng":139.745549	,	"name":"C1-16.機械振興会館"			,	"addr1":""		,	"addr2":""		,	"img":"system/data/port/C1-16.jpg"	,	"icon":"system/data/images/port.png"	},
	{"lat":35.657866	,	"lng":139.751068	,	"name":"C1-17.港区役所"			,	"addr1":""		,	"addr2":""		,	"img":"system/data/port/C1-17.jpg"	,	"icon":"system/data/images/port.png"	},
	{"lat":35.665242	,	"lng":139.758030	,	"name":"【1日パス販売窓口】C1-18.カプセル・イン新橋"	,	"addr1":""		,	"addr2":""		,	"img":"system/data/port/C1-18.jpg"	,	"icon":"system/data/images/yujin.png"	},
	{"lat":35.664878	,	"lng":139.756302	,	"name":"【1日パス販売窓口】C1-19.ホテルサンルート新橋",	"addr1":""		,	"addr2":""		,	"img":"system/data/port/C1-19.jpg"	,	"icon":"system/data/images/yujin.png"	},
	{"lat":35.657363 	,	"lng":139.759180	,	"name":"C1-21.汐留ビルディング",	"addr1":""		,	"addr2":""		,	"img":"system/data/port/C1-21.jpg"	,	"icon":"system/data/images/port.png"	},
	{"lat":35.658939 	,	"lng":139.757751 	,	"name":"C1-22.神明いきいきプラザ",	"addr1":""		,	"addr2":""		,	"img":"system/data/port/C1-22.jpg"	,	"icon":"system/data/images/port.png"	},
	{"lat":35.648637  	,	"lng":139.749834	,	"name":"C1-23.三田いきいきプラザ",	"addr1":""		,	"addr2":""		,	"img":"system/data/port/C1-23.jpg"	,	"icon":"system/data/images/port.png"	},
	{"lat":35.653159  	,	"lng":139.744673	,	"name":"C1-24.三田国際ビル",	"addr1":""		,	"addr2":""		,	"img":"system/data/port/C1-24.jpg"	,	"icon":"system/data/images/port.png"	},
	{"lat":35.658182  	,	"lng":139.755204	,	"name":"【1日パス販売窓口】C1-25.ホテルマイステイズ浜松町",	"addr1":"販売時間 9-21時"		,	"addr2":""		,	"img":"system/data/port/C1-25.jpg"	,	"icon":"system/data/images/yujin.png"	},
	{"lat":35.653896  	,	"lng":139.738800	,	"name":"C1-26.東京さぬき倶楽部",	"addr1":""		,	"addr2":""		,	"img":"system/data/port/C1-26.jpg"	,	"icon":"system/data/images/port.png"	},
	{"lat":35.668570  	,	"lng":139.747157	,	"name":"C1-27.虎ノ門２丁目タワー",	"addr1":""		,	"addr2":""		,	"img":"system/data/port/C1-27.jpg"	,	"icon":"system/data/images/port.png"	},
	{"lat":35.656632   	,	"lng":139.746455	,	"name":"C1-29.宝珠院",	"addr1":""		,	"addr2":""		,	"img":"system/data/port/C1-29.jpg"	,	"icon":"system/data/images/port.png"	},
	{"lat":35.652227	, 	"lng":139.750178   	,	"name":"C1-31.住友芝公園ビル",	"addr1":""		,	"addr2":""		,	"img":"system/data/port/C1-31.jpg"	,	"icon":"system/data/images/port.png"	},
	{"lat":35.650874  	,	"lng":139.755333	,	"name":"【1日パス販売窓口】C1-33.くれたけインプレミアム浜松町",	"addr1":""		,	"addr2":""		,	"img":"system/data/port/C1-33.jpg"	,	"icon":"system/data/images/yujin.png"	},
	{"lat":35.664479 	, 	"lng":139.743731   	,	"name":"C1-34.城山ガーデン",	"addr1":""		,	"addr2":""		,	"img":"system/data/port/C1-34.jpg"	,	"icon":"system/data/images/port.png"	},
	{"lat":35.649032 	,	"lng":139.750147	,	"name":"C1-35.セブン-イレブン 三田駅北店",	"addr1":""		,	"addr2":""		,	"img":"system/data/port/C1-35.jpg"	,	"icon":"system/data/images/port.png"	},
	{"lat":35.669458 	,	"lng":139.752672	,	"name":"C1-36.セブン-イレブン 西新橋1丁目外堀通り",	"addr1":""		,	"addr2":""		,	"img":"system/data/port/C1-36.jpg"	,	"icon":"system/data/images/port.png"	},
	{"lat":35.665218 	,	"lng":139.750827	,	"name":"C1-37.KDX西新橋ビル（北側）",	"addr1":""		,	"addr2":""		,	"img":"system/data/port/C1-37.jpg"	,	"icon":"system/data/images/port.png"	},
	{"lat":35.664950 	,	"lng":139.750459	,	"name":"C1-38.KDX西新橋ビル（西側）",	"addr1":""		,	"addr2":""		,	"img":"system/data/port/C1-38.jpg"	,	"icon":"system/data/images/port.png"	},
	{"lat":35.665333  	,	"lng":139.749446	,	"name":"【1日パス販売窓口】C1-40.新橋愛宕山東急REIホテル",	"addr1":""		,	"addr2":""		,	"img":"system/data/port/no.jpg"	,	"icon":"system/data/images/yujin.png"	},
	{"lat":35.658709 	,	"lng":139.757036	,	"name":"C1-41.港区立エコプラザ",	"addr1":""		,	"addr2":""		,	"img":"system/data/port/C1-41.jpg"	,	"icon":"system/data/images/port.png"	},
	{"lat":35.648043 	,	"lng":139.746273	,	"name":"C1-42.ピーアーク三田",	"addr1":""		,	"addr2":""		,	"img":"system/data/port/C1-42.jpg"	,	"icon":"system/data/images/port.png"	},
	{"lat":35.658169 	,	"lng":139.752509	,	"name":"C1-43.CROSS PLACE 浜松町",	"addr1":""		,	"addr2":""		,	"img":"system/data/port/C1-43.jpg"	,	"icon":"system/data/images/port.png"	},
	{"lat":35.667107	,	"lng":139.739565	,	"name":"C2-01.アークヒルズ（アーク森ビル）"		,	"addr1":""		,	"addr2":""		,	"img":"system/data/port/C2-01.jpg"	,	"icon":"system/data/images/port.png"	},
	{"lat":35.661158	,	"lng":139.728533	,	"name":"C2-02.六本木ヒルズ"			,	"addr1":""		,	"addr2":""		,	"img":"system/data/port/C2-02.jpg"	,	"icon":"system/data/images/port.png"	},
	{"lat":35.666357	,	"lng":139.739233	,	"name":"C2-03.アークヒルズサウスタワー"		,	"addr1":""		,	"addr2":""		,	"img":"system/data/port/C2-03.jpg"	,	"icon":"system/data/images/port.png"	},
	{"lat":35.656961  	,	"lng":139.740739	,	"name":"C2-04.飯倉いきいきプラザ"			,	"addr1":""		,	"addr2":""		,	"img":"system/data/port/C2-04.jpg"	,	"icon":"system/data/images/port.png"	},
	{"lat":35.651046 	,	"lng":139.727745	,	"name":"C2-05.ありすいきいきプラザ"		,	"addr1":""		,	"addr2":""		,	"img":"system/data/port/C2-05.jpg"	,	"icon":"system/data/images/port.png"	},
	{"lat":35.661673  	,	"lng":139.721118	,	"name":"C2-08.ファミリーマート西麻布霞町店"		,	"addr1":""		,	"addr2":""		,	"img":"system/data/port/C2-08.jpg"	,	"icon":"system/data/images/port.png"	},
	{"lat":35.660614  	,	"lng":139.734771	,	"name":"C2-09.麻布地区総合支所"		,	"addr1":""		,	"addr2":""		,	"img":"system/data/port/C2-09.jpg"	,	"icon":"system/data/images/port.png"	},
	{"lat":35.655799  	,	"lng":139.730415	,	"name":"C2-10.元麻布三丁目"		,	"addr1":""		,	"addr2":""		,	"img":"system/data/port/C2-10.jpg"	,	"icon":"system/data/images/port.png"	},
	{"lat":35.654726  	,	"lng":139.737491	,	"name":"C2-11.一の橋"		,	"addr1":""		,	"addr2":""		,	"img":"system/data/port/C2-11.jpg"	,	"icon":"system/data/images/port.png"	},	
	{"lat":35.662490  	,	"lng":139.741397	,	"name":"C2-12.六本木ファーストビル"		,	"addr1":""		,	"addr2":""		,	"img":"system/data/port/C2-12.jpg"	,	"icon":"system/data/images/port.png"	},
	{"lat":35.651718  	,	"lng":139.728165	,	"name":"C2-13.麻布運動場"		,	"addr1":""		,	"addr2":""		,	"img":"system/data/port/C2-13.jpg"	,	"icon":"system/data/images/port.png"	},
	{"lat":35.653608 	,	"lng":139.731380	,	"name":"C2-14.元麻布ヒルズ"		,	"addr1":""		,	"addr2":""		,	"img":"system/data/port/C2-14.jpg"	,	"icon":"system/data/images/port.png"	},
	{"lat":35.664367	,	"lng":139.737185	,	"name":"C2-15.住友不動産六本木グランドタワー"		,	"addr1":""		,	"addr2":""		,	"img":"system/data/port/C2-15.jpg"	,	"icon":"system/data/images/port.png"	},
	{"lat":35.657264	,	"lng":139.743821	,	"name":"C2-16.ザ・ベルグレイヴィア麻布"		,	"addr1":""		,	"addr2":""		,	"img":"system/data/port/C2-16.jpg"	,	"icon":"system/data/images/port.png"	},
	{"lat":35.665910	,	"lng":139.727816	,	"name":"C2-17.goodoffice ROPPONGI"		,	"addr1":""		,	"addr2":""		,	"img":"system/data/port/C2-17.jpg"	,	"icon":"system/data/images/port.png"	},
	{"lat":35.66991		, 	"lng":139.73453		,	"name":"【1日パス販売窓口】C3-01.カイス"		,	"addr1":""		,	"addr2":""		,	"img":"system/data/port/C3-01.jpg"	,	"icon":"system/data/images/yujin.png"	},
	{"lat":35.674788	,	"lng":139.731423	,	"name":"C3-02.赤坂地区総合支所"		,	"addr1":""		,	"addr2":""		,	"img":"system/data/port/C3-02.jpg"	,	"icon":"system/data/images/port.png"	},
	{"lat":35.669020	,	"lng":139.721383	,	"name":"C3-03.青山いきいきプラザ"		,	"addr1":""		,	"addr2":""		,	"img":"system/data/port/C3-03.jpg"	,	"icon":"system/data/images/port.png"	},
	{"lat":35.666459	,	"lng":139.717476	,	"name":"C3-04.青南いきいきプラザ"		,	"addr1":""		,	"addr2":""		,	"img":"system/data/port/C3-04.jpg"	,	"icon":"system/data/images/port.png"	},
	{"lat":35.671981	,	"lng":139.714470	,	"name":"C3-05.GLOCAL CAFE"		,	"addr1":""		,	"addr2":""		,	"img":"system/data/port/C3-05.jpg"	,	"icon":"system/data/images/port.png"	},
	{"lat":35.670640	,	"lng":139.728166	,	"name":"C3-06.ホテルアジア会館"		,	"addr1":""		,	"addr2":""		,	"img":"system/data/port/C3-06.jpg"	,	"icon":"system/data/images/port.png"	},
	{"lat":35.672659	,	"lng":139.725644	,	"name":"C3-07.新青山ビル"		,	"addr1":""		,	"addr2":""		,	"img":"system/data/port/C3-07.jpg"	,	"icon":"system/data/images/port.png"	},
	{"lat":35.671792	,	"lng":139.733668	,	"name":"C3-08.赤坂パークビルヂング"		,	"addr1":""		,	"addr2":""		,	"img":"system/data/port/C3-08.jpg"	,	"icon":"system/data/images/port.png"	},
	{"lat":35.672359	,	"lng":139.736731	,	"name":"C3-09.国際新赤坂ビル"		,	"addr1":""		,	"addr2":""		,	"img":"system/data/port/C3-09.jpg"	,	"icon":"system/data/images/port.png"	},
	{"lat":35.670364	,	"lng":139.744684	,	"name":"C3-10.ファミリーマート特許庁前店"		,	"addr1":""		,	"addr2":""		,	"img":"system/data/port/C3-10.jpg"	,	"icon":"system/data/images/port.png"	},
	{"lat":35.676566 	,	"lng":139.737083	,	"name":"C3-11.赤坂見附南"		,	"addr1":""		,	"addr2":""		,	"img":"system/data/port/C3-11.jpg"	,	"icon":"system/data/images/port.png"	},
	{"lat":35.676732 	,	"lng":139.733905 	,	"name":"C3-12.赤坂センタービルディング前（青山通り）"		,	"addr1":""		,	"addr2":""		,	"img":"system/data/port/C3-12.jpg"	,	"icon":"system/data/images/port.png"	},
	{"lat":35.671669  	,	"lng":139.741268 	,	"name":"C3-13.国際赤坂ビル（溜池山王駅10番出口）"		,	"addr1":""		,	"addr2":""		,	"img":"system/data/port/C3-13.jpg"	,	"icon":"system/data/images/port.png"	},
	{"lat":35.671921  	,	"lng":139.741022 	,	"name":"C3-14.国際赤坂ビル（正面玄関横）"		,	"addr1":""		,	"addr2":""		,	"img":"system/data/port/C3-14.jpg"	,	"icon":"system/data/images/port.png"	},
	{"lat":35.671832  	,	"lng":139.741007	,	"name":"【1日パス販売窓口】C3-15.ドコモ・ためタン",	"addr1":"月曜～金曜 9時30分～18時"		,	"addr2":""		,	"img":"system/data/port/no.jpg"	,	"icon":"system/data/images/yujin.png"	},
	{"lat":35.673800  	,	"lng":139.731525 	,	"name":"C3-16.赤坂ガーデンシティ"		,	"addr1":""		,	"addr2":""		,	"img":"system/data/port/C3-16.jpg"	,	"icon":"system/data/images/port.png"	},
	{"lat":35.670308  	,	"lng":139.743242 	,	"name":"C3-17.セブン-イレブン 港区溜池山王店"		,	"addr1":""		,	"addr2":""		,	"img":"system/data/port/C3-17.jpg"	,	"icon":"system/data/images/port.png"	},
	{"lat":35.678183  	,	"lng":139.721317 	,	"name":"C3-18.明治記念館"		,	"addr1":"OPEN 7:00-21:00"		,	"addr2":""		,	"img":"system/data/port/C3-18.jpg"	,	"icon":"system/data/images/port.png"	},
	{"lat":35.678179 	,	"lng":139.720809 	,	"name":"C3-19.明治記念館西"		,	"addr1":""		,	"addr2":""		,	"img":"system/data/port/C3-19.jpg"	,	"icon":"system/data/images/port.png"	},
	{"lat":35.673391  	,	"lng":139.738342	,	"name":"【1日パス販売窓口】C3-21.TOKYO LITTLE HOUSE",	"addr1":"11時〜20時（土曜のみ13時〜20時）"		,	"addr2":""		,	"img":"system/data/port/C3-21.jpg"	,	"icon":"system/data/images/yujin.png"	},
	{"lat":35.674929 	,	"lng":139.736053  	,	"name":"C3-22.ビスタホテル赤坂ビル"		,	"addr1":""		,	"addr2":""		,	"img":"system/data/port/C3-22.jpg"	,	"icon":"system/data/images/port.png"	},
	{"lat":35.641833 	,	"lng":139.734519	,	"name":"C4-01.高輪地区総合支所（5F）"			,	"addr1":""		,	"addr2":""		,	"img":"system/data/port/C4-01.jpg"	,	"icon":"system/data/images/port.png"	},
	{"lat":35.637560 	,	"lng":139.724981	,	"name":"C4-02.白金台いきいきプラザ"			,	"addr1":""		,	"addr2":""		,	"img":"system/data/port/C4-02.jpg"	,	"icon":"system/data/images/port.png"	},
	{"lat":35.638110 	,	"lng":139.734529	,	"name":"C4-03.東海大学高輪キャンパス"			,	"addr1":""		,	"addr2":""		,	"img":"system/data/port/C4-03.jpg"	,	"icon":"system/data/images/port.png"	},
	{"lat":35.63216 	,	"lng":139.73211	,		"name":"C4-04.ショパン高輪"			,	"addr1":""		,	"addr2":""		,	"img":"system/data/port/C4-04.jpg"	,	"icon":"system/data/images/port.png"	},
	{"lat":35.638927 	,	"lng":139.727083,		"name":"C4-05.白金台駅自転車駐車場"			,	"addr1":""		,	"addr2":""		,	"img":"system/data/port/C4-05.jpg"	,	"icon":"system/data/images/port.png"	},
	{"lat":35.629697	,	"lng":139.742167	,	"name":"C5-01.こうなん星の公園"			,	"addr1":""		,	"addr2":""		,	"img":"system/data/port/C5-01.jpg"	,	"icon":"system/data/images/port.png"	},
	{"lat":35.628955	,	"lng":139.750731	,	"name":"C5-02.港南緑水公園"			,	"addr1":""		,	"addr2":""		,	"img":"system/data/port/C5-02.jpg"	,	"icon":"system/data/images/port.png"	},
	{"lat":35.624966	,	"lng":139.746657	,	"name":"C5-03.港南公園C"			,	"addr1":""		,	"addr2":""		,	"img":"system/data/port/C5-03.jpg"	,	"icon":"system/data/images/port.png"	},
	{"lat":35.646765	,	"lng":139.751093	,	"name":"C5-04.みなとパーク芝浦"			,	"addr1":""		,	"addr2":""		,	"img":"system/data/port/C5-04.jpg"	,	"icon":"system/data/images/port.png"	},
	{"lat":35.650659 	,	"lng":139.756843	,	"name":"C5-05.浜松町ビルディング"		,	"addr1":""		,	"addr2":""		,	"img":"system/data/port/C5-05.jpg"	,	"icon":"system/data/images/port.png"	},
	{"lat":35.6323033 	,	"lng":139.742393	,	"name":"C5-06.品川シーズンテラス",	"addr1":""		,	"addr2":""		,	"img":"system/data/port/C5-06.jpg"	,	"icon":"system/data/images/port.png"	},
	{"lat":35.632842 	,	"lng":139.749500	,	"name":"C5-07.港区立港南図書館",	"addr1":""		,	"addr2":""		,	"img":"system/data/port/C5-07.jpg"	,	"icon":"system/data/images/port.png"	},
	{"lat":35.637366 	,	"lng":139.748440	,	"name":"C5-08.AQUACITY芝浦",	"addr1":""		,	"addr2":""		,	"img":"system/data/port/C5-08.jpg"	,	"icon":"system/data/images/port.png"	},
	{"lat":35.643202 	,	"lng":139.746244	,	"name":"C5-09.グランパーク",	"addr1":""		,	"addr2":""		,	"img":"system/data/port/C5-09.jpg"	,	"icon":"system/data/images/port.png"	},
	{"lat":35.649959 	,	"lng":139.756068	,	"name":"C5-10.シーバンス",	"addr1":""		,	"addr2":""		,	"img":"system/data/port/C5-10.jpg"	,	"icon":"system/data/images/port.png"	},
	{"lat":35.63182  	,	"lng":139.74948		,	"name":"C5-11.フェイバリッチタワー品川",	"addr1":""		,	"addr2":""		,	"img":"system/data/port/C5-11.jpg"	,	"icon":"system/data/images/port.png"	},
	{"lat":35.633990 	,	"lng":139.748804	,	"name":"C5-12.第２東運ビル",	"addr1":""		,	"addr2":""		,	"img":"system/data/port/C5-12.jpg"	,	"icon":"system/data/images/port.png"	},
	{"lat":35.638245 	,	"lng":139.749754	,	"name":"C5-13.区立芝浦西運河沿緑地",	"addr1":""		,	"addr2":""		,	"img":"system/data/port/C5-13.jpg"	,	"icon":"system/data/images/port.png"	},
	{"lat":35.640481 	,	"lng":139.753659	,	"name":"C5-14.セブン-イレブン 港区汐彩橋店",	"addr1":""		,	"addr2":""		,	"img":"system/data/port/C5-14.jpg"	,	"icon":"system/data/images/port.png"	},
	{"lat":35.640215 	,	"lng":139.755971	,	"name":"C5-15.セブン-イレブン 港区芝浦ふ頭店",	"addr1":""		,	"addr2":""		,	"img":"system/data/port/C5-15.jpg"	,	"icon":"system/data/images/port.png"	},
	{"lat":35.626704 	,	"lng":139.742174	,	"name":"C5-16.品川インターシティ",	"addr1":""		,	"addr2":""		,	"img":"system/data/port/C5-16.jpg"	,	"icon":"system/data/images/port.png"	},
	{"lat":35.651103 	,	"lng":139.759092	,	"name":"C5-17.鈴与浜松町ビル",	"addr1":""		,	"addr2":""		,	"img":"system/data/port/C5-17.jpg"	,	"icon":"system/data/images/port.png"	},
	{"lat":35.634529 	,	"lng":139.748378	,	"name":"C5-18.パークタワー品川ベイワード",	"addr1":""		,	"addr2":""		,	"img":"system/data/port/C5-18.jpg"	,	"icon":"system/data/images/port.png"	},
	{"lat":35.645537 	,	"lng":139.754899	,	"name":"C5-19.グランドメゾン田町",	"addr1":""		,	"addr2":""		,	"img":"system/data/port/C5-19.jpg"	,	"icon":"system/data/images/port.png"	},
	{"lat":35.645254	,	"lng":139.754765	,	"name":"C5-20.ローソン芝浦二丁目店",	"addr1":""		,	"addr2":""		,	"img":"system/data/port/C5-20.jpg"	,	"icon":"system/data/images/port.png"	},
	{"lat":35.642399	,	"lng":139.746992	,	"name":"C5-21.セブン-イレブン 芝浦3丁目店",	"addr1":""		,	"addr2":""		,	"img":"system/data/port/C5-21.jpg"	,	"icon":"system/data/images/port.png"	},
	{"lat":35.649101 	,	"lng":139.764639	,	"name":"【1日パス販売窓口】C5-22.東京ウォータータクシー",	"addr1":"営業時間：9時〜17時"		,	"addr2":"船内にて販売"		,	"img":"system/data/port/no.jpg"	,	"icon":"system/data/images/yujin.png"	},
	{"lat":35.647713 	,	"lng":139.755534	,	"name":"C5-24.GLOBAL FRONT TOWER",	"addr1":""		,	"addr2":""		,	"img":"system/data/port/C5-24.jpg"	,	"icon":"system/data/images/port.png"	},
	{"lat":35.639571 	,	"lng":139.755551	,	"name":"C5-25.NEX-TEC芝浦",	"addr1":""		,	"addr2":""		,	"img":"system/data/port/C5-25.jpg"	,	"icon":"system/data/images/port.png"	},
	{"lat":35.644155 	,	"lng":139.756216	,	"name":"C5-26.ピアシティ芝浦ビル",	"addr1":""		,	"addr2":""		,	"img":"system/data/port/C5-26.jpg"	,	"icon":"system/data/images/port.png"	},
	{"lat":35.648948 	,	"lng":139.757895	,	"name":"C5-27.プレミア海岸ビル",	"addr1":""		,	"addr2":""		,	"img":"system/data/port/C5-27.jpg"	,	"icon":"system/data/images/port.png"	}
]