[{
		"lat": 35.690612,
		"lng": 139.711631,
		"name": "D1-01.花園西公園",
		"addr1": "",
		"addr2": "",
		"img": "system/data/port/D1-01.jpg",
		"icon": "system/data/images/port.png"
	}, {
		"lat": 35.687434,
		"lng": 139.714169,
		"name": "D1-02.四谷特別出張所（新宿御苑大木戸門前）",
		"addr1": "",
		"addr2": "",
		"img": "system/data/port/D1-02.jpg",
		"icon": "system/data/images/port.png"
	}, {
		"lat": 35.684523,
		"lng": 139.720519,
		"name": "D1-03.新左門児童遊園",
		"addr1": "",
		"addr2": "",
		"img": "system/data/port/D1-03.jpg",
		"icon": "system/data/images/port.png"
	}, {
		"lat": 35.683448,
		"lng": 139.728425,
		"name": "D1-04.四谷見附公園",
		"addr1": "",
		"addr2": "",
		"img": "system/data/port/D1-04.jpg",
		"icon": "system/data/images/port.png"
	}, {
		"lat": 35.68794,
		"lng": 139.718212,
		"name": "D1-05.ホテルウイングインターナショナルプレミアム東京四谷",
		"addr1": "",
		"addr2": "",
		"img": "system/data/port/D1-05.jpg",
		"icon": "system/data/images/yujin_port.png"
	}, {
		"lat": 35.681754,
		"lng": 139.715256,
		"name": "D1-06.四谷第六小学校北",
		"addr1": "",
		"addr2": "",
		"img": "system/data/port/D1-06.jpg",
		"icon": "system/data/images/port.png"
	}, {
		"lat": 35.689757,
		"lng": 139.710091,
		"name": "D1-07.Belleビル",
		"addr1": "",
		"addr2": "",
		"img": "system/data/port/D1-07.jpg",
		"icon": "system/data/images/port.png"
	}, {
		"lat": 35.689984,
		"lng": 139.725261,
		"name": "D1-08.新宿歴史博物館",
		"addr1": "",
		"addr2": "",
		"img": "system/data/port/D1-08.jpg",
		"icon": "system/data/images/port.png"
	}, {
		"lat": 35.691188,
		"lng": 139.712079,
		"name": "D1-09.NTT四谷ビル",
		"addr1": "",
		"addr2": "",
		"img": "system/data/port/D1-09.jpg",
		"icon": "system/data/images/port.png"
	}, {
		"lat": 35.702286,
		"lng": 139.741093,
		"name": "D2-01.あずさセンタービル（軽子坂通り）",
		"addr1": "",
		"addr2": "",
		"img": "system/data/port/D2-01.jpg",
		"icon": "system/data/images/port.png"
	}, {
		"lat": 35.705343,
		"lng": 139.742285,
		"name": "【1日パス販売窓口】D2-02.フレックスステイイン飯田橋",
		"addr1": "",
		"addr2": "",
		"img": "system/data/port/D2-02.jpg",
		"icon": "system/data/images/yujin.png"
	}, {
		"lat": 35.707812,
		"lng": 139.735921,
		"name": "D2-03.セブン-イレブン 新宿水道町中央店",
		"addr1": "",
		"addr2": "",
		"img": "system/data/port/D2-03.jpg",
		"icon": "system/data/images/port.png"
	}, {
		"lat": 35.705553,
		"lng": 139.7354636,
		"name": "D2-04.セブン-イレブン 新宿築地町店",
		"addr1": "",
		"addr2": "",
		"img": "system/data/port/D2-04.jpg",
		"icon": "system/data/images/port.png"
	}, {
		"lat": 35.70709,
		"lng": 139.73974,
		"name": "D2-06.飯田濠",
		"addr1": "",
		"addr2": "",
		"img": "system/data/port/D2-06.jpg",
		"icon": "system/data/images/port.png"
	}, {
		"lat": 35.707066,
		"lng": 139.739839,
		"name": "D2-07.ファミリーマート東五軒町店",
		"addr1": "",
		"addr2": "",
		"img": "system/data/port/D2-07.jpg",
		"icon": "system/data/images/port.png"
	}, {
		"lat": 35.701198,
		"lng": 139.730781,
		"name": "D2-08.旧市ヶ谷商業高校",
		"addr1": "",
		"addr2": "",
		"img": "system/data/port/D2-08.jpg",
		"icon": "system/data/images/port.png"
	}, {
		"lat": 35.700993,
		"lng": 139.7363355,
		"name": "D2-09.セブン-イレブン 新宿岩戸町店",
		"addr1": "",
		"addr2": "",
		"img": "system/data/port/D2-09.jpg",
		"icon": "system/data/images/port.png"
	}, {
		"lat": 35.710105,
		"lng": 139.723045,
		"name": "D3-01.リーガロイヤルホテル東京",
		"addr1": "",
		"addr2": "",
		"img": "system/data/port/D3-01.jpg",
		"icon": "system/data/images/port.png"
	}, {
		"lat": 35.712431,
		"lng": 139.715418,
		"name": "D3-03.甘泉園公園",
		"addr1": "",
		"addr2": "",
		"img": "system/data/port/D3-03.jpg",
		"icon": "system/data/images/port.png"
	}, {
		"lat": 35.706182,
		"lng": 139.723394,
		"name": "D3-04.鶴巻南公園",
		"addr1": "",
		"addr2": "",
		"img": "system/data/port/D3-04.jpg",
		"icon": "system/data/images/port.png"
	}, {
		"lat": 35.713872,
		"lng": 139.698301,
		"name": "D3-06.セブン-イレブン 高田馬場3丁目中央店",
		"addr1": "",
		"addr2": "",
		"img": "system/data/port/D3-06.jpg",
		"icon": "system/data/images/port.png"
	}, {
		"lat": 35.714270,
		"lng": 139.705070,
		"name": "D3-07.戸塚特別出張所",
		"addr1": "",
		"addr2": "",
		"img": "system/data/port/D3-07.jpg",
		"icon": "system/data/images/port.png"
	}, {
		"lat": 35.705244,
		"lng": 139.708410,
		"name": "D5-01.新宿コズミックセンター",
		"addr1": "",
		"addr2": "",
		"img": "system/data/port/D5-01.jpg",
		"icon": "system/data/images/port.png"
	}, {
		"lat": 35.701264,
		"lng": 139.704449,
		"name": "D5-02.セブン-イレブン 新宿大久保通り店",
		"addr1": "",
		"addr2": "",
		"img": "system/data/port/D5-02.jpg",
		"icon": "system/data/images/port.png"
	}, {
		"lat": 35.702288,
		"lng": 139.688620,
		"name": "D5-03.北新宿公園",
		"addr1": "",
		"addr2": "",
		"img": "system/data/port/D5-03.jpg",
		"icon": "system/data/images/port.png"
	}, {
		"lat": 35.707388,
		"lng": 139.700204,
		"name": "D5-04.西戸山公園野球場",
		"addr1": "",
		"addr2": "",
		"img": "system/data/port/D5-04.jpg",
		"icon": "system/data/images/port.png"
	}, {
		"lat": 35.705044,
		"lng": 139.706863,
		"name": "D5-05.中央図書館",
		"addr1": "",
		"addr2": "",
		"img": "system/data/port/D5-05.jpg",
		"icon": "system/data/images/port.png"
	}, {
		"lat": 35.699886,
		"lng": 139.696190,
		"name": "D5-06.NTT新宿ビルA",
		"addr1": "",
		"addr2": "",
		"img": "system/data/port/D5-06.jpg",
		"icon": "system/data/images/port.png"
	}, {
		"lat": 35.699290,
		"lng": 139.697617,
		"name": "D5-07.セブン-イレブン 新宿大久保駅南口店",
		"addr1": "",
		"addr2": "",
		"img": "system/data/port/D5-07.jpg",
		"icon": "system/data/images/port.png"
	}, {
		"lat": 35.704597,
		"lng": 139.708397,
		"name": "D5-08.ウエリス新宿早稲田の森",
		"addr1": "",
		"addr2": "",
		"img": "system/data/port/D5-08.jpg",
		"icon": "system/data/images/port.png"
	},{
		"lat": 35.693833,
		"lng": 139.703121,
		"name": "D6-01.新宿区役所本庁舎",
		"addr1": "",
		"addr2": "",
		"img": "system/data/port/D6-01.jpg",
		"icon": "system/data/images/port.png"
	}, {
		"lat": 35.693821,
		"lng": 139.705763,
		"name": "D6-02.新宿区役所第二分庁舎",
		"addr1": "",
		"addr2": "",
		"img": "system/data/port/D6-02.jpg",
		"icon": "system/data/images/port.png"
	}, {
		"lat": 35.691558,
		"lng": 139.690028,
		"name": "D6-03.新宿中央公園（ポケットパーク）",
		"addr1": "",
		"addr2": "",
		"img": "system/data/port/D6-03.jpg",
		"icon": "system/data/images/port.png"
	}, {
		"lat": 35.686757,
		"lng": 139.689840,
		"name": "D6-04.新宿中央公園（ちびっこ広場）",
		"addr1": "",
		"addr2": "",
		"img": "system/data/port/D6-04.jpg",
		"icon": "system/data/images/port.png"
	}, {
		"lat": 35.690473,
		"lng": 139.690219,
		"name": "D6-05.新宿中央公園（水の広場）",
		"addr1": "",
		"addr2": "",
		"img": "system/data/port/D6-05.jpg",
		"icon": "system/data/images/port1.png"
	}, {
		"lat": 35.691199,
		"lng": 139.687966,
		"name": "D6-06.新宿中央公園（エコギャラリー下）",
		"addr1": "",
		"addr2": "",
		"img": "system/data/port/D6-06.jpg",
		"icon": "system/data/images/port.png"
	}, {
		"lat": 35.696055,
		"lng": 139.689806,
		"name": "D6-07.新宿フロントタワー",
		"addr1": "",
		"addr2": "",
		"img": "system/data/port/D6-07.jpg",
		"icon": "system/data/images/port.png"
	}, {
		"lat": 35.697158,
		"lng": 139.707887,
		"name": "D6-08.新宿イーストサイドスクエア",
		"addr1": "",
		"addr2": "",
		"img": "system/data/port/D6-08.jpg",
		"icon": "system/data/images/port.png"
	}, {
		"lat": 35.692377,
		"lng": 139.708942,
		"name": "D6-09.ホテルたてしな",
		"addr1": "",
		"addr2": "",
		"img": "system/data/port/D6-09.jpg",
		"icon": "system/data/images/yujin_port.png"
	}, {
		"lat": 35.694201,
		"lng": 139.707047,
		"name": "D6-10.ホテルサンライト新宿",
		"addr1": "",
		"addr2": "",
		"img": "system/data/port/D6-10.jpg",
		"icon": "system/data/images/yujin_port.png"
	}, {
		"lat": 35.693029,
		"lng": 139.711327,
		"name": "D6-11.ホテルリステル新宿",
		"addr1": "",
		"addr2": "",
		"img": "system/data/port/D6-11.jpg",
		"icon": "system/data/images/yujin_port.png"
	}, {
		"lat": 35.693420,
		"lng": 139.710568,
		"name": "D6-12.東京ビジネスホテル",
		"addr1": "",
		"addr2": "",
		"img": "system/data/port/D6-12.jpg",
		"icon": "system/data/images/yujin_port.png"
	}, {
		"lat": 35.687652,
		"lng": 139.689254,
		"name": "D6-13.新宿中央公園（ジャブジャブ池下）",
		"addr1": "",
		"addr2": "",
		"img": "system/data/port/D6-13.jpg",
		"icon": "system/data/images/port.png"
	}, {
		"lat": 35.689529,
		"lng": 139.695995,
		"name": "D6-14.新宿ファーストウエスト",
		"addr1": "",
		"addr2": "",
		"img": "system/data/port/D6-14.jpg",
		"icon": "system/data/images/port.png"
	}, {
		"lat": 35.694650,
		"lng": 139.695911,
		"name": "D6-15.住友不動産西新宿ビル",
		"addr1": "",
		"addr2": "",
		"img": "system/data/port/D6-15.jpg",
		"icon": "system/data/images/port.png"
	}, {
		"lat": 35.688715,
		"lng": 139.703724,
		"name": "D6-16.FORECAST 新宿 SOUTH",
		"addr1": "",
		"addr2": "",
		"img": "system/data/port/D6-16.jpg",
		"icon": "system/data/images/port.png"
	}, {
		"lat": 35.715894,
		"lng": 139.698578,
		"name": "D7-01.下落合図書館",
		"addr1": "",
		"addr2": "",
		"img": "system/data/port/D7-01.jpg",
		"icon": "system/data/images/port.png"
	}, {
		"lat": 35.722202,
		"lng": 139.691712,
		"name": "D7-02.セブン-イレブン 新宿中落合3丁目店",
		"addr1": "",
		"addr2": "",
		"img": "system/data/port/D7-02.jpg",
		"icon": "system/data/images/port.png"
	}, {
		"lat": 35.715645,
		"lng": 139.687486,
		"name": "D7-03.中井駅北",
		"addr1": "",
		"addr2": "",
		"img": "system/data/port/D7-03.jpg",
		"icon": "system/data/images/port1.png"
	}, {
		"lat": 35.722645,
		"lng": 139.701982,
		"name": "D7-04.セブン-イレブン 新宿下落合3丁目店",
		"addr1": "",
		"addr2": "",
		"img": "system/data/port/D7-04.jpg",
		"icon": "system/data/images/port.png"
	}, {
		"lat": 35.725818,
		"lng": 139.678976,
		"name": "D7-05.西落合図書館",
		"addr1": "",
		"addr2": "",
		"img": "system/data/port/D7-05.jpg",
		"icon": "system/data/images/port.png"
	}, {
		"lat": 35.721064,
		"lng": 139.677128,
		"name": "D7-06.エムアイセミナーハウス",
		"addr1": "",
		"addr2": "",
		"img": "system/data/port/D7-06.jpg",
		"icon": "system/data/images/port.png"
	}
]
